city,country,lat,lng,temp,humidity,cloudiness,wind_speed
Solnechnyy,RU,50.72,136.63,59.43,54,100,3.24
Port Alfred,ZA,-33.59,26.89,49.82,63,16,21.61
Ixtapa,MX,20.7,-105.2,83.08,74,90,4.7
Ushuaia,AR,-54.8,-68.3,32.0,93,90,13.87
Fort Dodge,US,42.5,-94.17,65.35,60,1,3.36
Ketchikan,US,55.34,-131.65,60.8,72,75,3.36
Barpathār,IN,26.3,93.87,83.26,75,52,4.21
Kavieng,PG,-2.57,150.8,85.91,68,31,12.62
Mount Isa,AU,-20.73,139.5,82.4,37,18,11.41
Souillac,MU,-20.52,57.52,69.8,73,40,14.99
Fortuna,US,40.6,-124.16,58.8,82,1,11.41
Punta Arenas,CL,-53.15,-70.92,38.07,80,70,25.28
Rikitea,PF,-23.12,-134.97,70.43,72,0,6.44
Eureka,US,40.8,-124.16,60.48,77,1,8.05
Kapaa,US,22.08,-159.32,81.72,74,40,16.11
Nālūt,LY,30.33,10.85,80.26,24,0,15.12
New Norfolk,AU,-42.78,147.06,63.81,51,58,5.99
Fenoarivo,MG,-18.93,47.44,57.2,71,75,10.29
Bathsheba,BB,13.22,-59.52,80.6,83,40,14.99
Bredasdorp,ZA,-34.53,20.04,42.8,87,8,5.82
Ancud,CL,-41.87,-73.82,36.01,96,69,5.01
Morant Bay,JM,17.88,-76.41,83.28,84,75,8.05
Nola,IT,40.92,14.53,77.76,64,0,1.12
Tual,ID,-5.67,132.75,79.38,84,94,21.41
Fort Nelson,CA,58.81,-122.7,53.6,58,75,4.7
Albany,US,42.6,-73.97,68.92,70,15,8.01
Puerto Ayora,EC,-0.74,-90.35,65.28,86,97,11.03
Mataura,NZ,-46.19,168.86,56.25,61,100,9.51
Muskegon,US,43.3,-86.13,65.73,56,40,8.05
Atuona,PF,-9.8,-139.03,79.18,77,13,20.24
Jamestown,US,42.1,-79.24,60.91,82,1,8.05
Saint Paul Harbor,US,57.79,-152.41,53.6,93,90,20.8
High Level,CA,58.52,-117.14,50.0,93,90,6.93
George Town,MY,5.41,100.34,82.02,83,20,2.24
Isangel,VU,-19.55,169.27,77.0,69,75,16.11
Mar del Plata,AR,-38.0,-57.56,42.55,64,40,4.7
Dikson,RU,73.51,80.55,41.81,96,100,20.67
Thompson,CA,55.74,-97.86,55.4,76,75,2.24
Cabo San Lucas,MX,22.89,-109.91,79.14,94,90,4.7
Dombarovskiy,RU,50.76,59.54,69.08,40,100,13.42
Xining,CN,36.62,101.77,49.96,83,100,4.23
Viedma,AR,-40.81,-63.0,37.08,63,0,9.55
Inta,RU,66.03,60.17,53.38,72,21,17.83
Butaritari,KI,3.07,172.79,84.0,68,37,10.42
Haines Junction,CA,60.75,-137.51,56.28,51,7,7.81
Busselton,AU,-33.65,115.33,57.0,50,51,9.42
Alofi,NU,-19.06,-169.92,80.6,69,18,18.34
Cao Bang,VN,22.67,106.25,86.54,65,4,1.97
Lüderitz,NA,-26.65,15.16,50.09,62,0,15.61
Isiro,CD,2.77,27.62,63.09,98,86,1.19
Airai,TL,-8.93,125.41,72.7,42,98,5.1
Sioux Lookout,CA,50.1,-91.92,57.2,71,75,3.36
San Rafael del Sur,NI,11.85,-86.44,78.8,83,40,4.7
Barrow,US,71.29,-156.79,37.4,74,90,17.22
Hilo,US,19.73,-155.09,78.3,58,40,12.75
Pisco,PE,-13.7,-76.22,61.75,87,90,12.75
Diffa,NE,13.32,12.61,77.11,68,100,3.02
Haukipudas,FI,65.18,25.35,48.2,81,97,3.36
Provideniya,RU,64.38,-173.3,53.37,63,65,10.18
Tasiilaq,GL,65.61,-37.64,41.0,75,100,2.24
Guerrero Negro,MX,27.98,-114.06,76.64,76,79,12.39
Sibolga,ID,1.74,98.78,84.04,68,80,0.74
Arraial do Cabo,BR,-22.97,-42.03,71.96,87,0,26.33
Sergeevka,KZ,53.88,67.42,65.5,68,73,5.28
Lebu,CL,-37.62,-73.65,44.2,76,0,12.33
Kahului,US,20.89,-156.47,82.0,46,1,28.86
Ostrovnoy,RU,68.05,39.51,47.37,90,100,4.03
Khatanga,RU,71.97,102.5,55.63,59,94,10.63
Aykhal,RU,66.0,111.5,53.6,50,90,1.61
Ponta do Sol,PT,32.67,-17.1,68.29,56,40,13.87
Lac du Bonnet,CA,50.25,-96.06,64.11,99,0,4.63
Merauke,ID,-8.47,140.33,84.27,71,100,9.1
Yellowknife,CA,62.46,-114.35,46.24,93,90,19.46
Hermanus,ZA,-34.42,19.23,39.0,93,7,1.01
Rawson,AR,-43.3,-65.1,45.18,55,0,17.22
Vestmannaeyjar,IS,63.44,-20.27,52.43,92,100,12.5
Iranshahr,IR,27.2,60.68,82.47,15,0,6.02
Port-Gentil,GA,-0.72,8.78,75.16,87,89,14.63
Faanui,PF,-16.48,-151.75,78.3,75,0,23.38
Hithadhoo,MV,-0.6,73.08,82.65,73,34,10.11
Ilo,PE,-17.64,-71.34,59.43,81,96,8.08
Upernavik,GL,72.79,-56.15,40.15,74,0,3.31
Castro,BR,-24.79,-50.01,60.17,78,0,3.58
Sémbé,CG,1.65,14.58,70.09,94,100,2.95
Bluff,NZ,-46.6,168.33,54.03,74,67,29.46
Dawlatabad,AF,36.41,64.91,70.83,27,0,7.72
Kastamonu Province,TR,41.5,33.67,57.43,71,0,1.16
Praia,CV,14.92,-23.51,78.8,94,20,3.36
Kysyl-Syr,RU,63.9,122.76,58.26,86,100,2.89
Santiago del Estero,AR,-27.8,-64.26,58.75,39,25,13.29
Severo-Kuril'sk,RU,50.68,156.12,52.83,79,63,10.87
Grand Gaube,MU,-20.01,57.66,70.0,71,1,8.99
Nísia Floresta,BR,-6.09,-35.21,76.14,83,75,11.41
Laje,BR,-10.18,-40.97,68.16,75,0,7.99
Katsuura,JP,35.13,140.3,93.4,63,20,11.41
Kasempa,ZM,-13.46,25.83,63.7,45,21,1.14
Obo,CF,5.4,26.49,66.6,98,97,4.34
Lorengau,PG,-2.02,147.27,85.33,71,98,11.68
Turka,UA,49.15,23.03,63.19,81,0,1.99
Ribeira Grande,PT,38.52,-28.7,74.5,94,69,7.02
Sambava,MG,-14.27,50.17,69.55,83,60,11.99
Monte Patria,CL,-30.69,-70.95,54.05,50,100,1.95
Acapulco de Juárez,MX,16.86,-99.89,80.6,83,75,3.36
Orlik,RU,52.52,99.83,47.41,80,100,4.59
Khovd,MN,48.01,91.64,55.17,53,68,3.09
Westport,US,41.14,-73.36,74.95,83,1,10.29
Manadhoo,MV,5.77,73.38,83.05,68,93,7.14
Kavaratti,IN,10.57,72.64,81.97,78,100,14.5
Vredendal,ZA,-31.67,18.5,41.34,68,0,4.56
Letlhakane,BW,-21.42,25.58,61.12,29,44,12.03
Price,US,39.6,-110.81,86.0,12,1,16.11
Touros,BR,-5.2,-35.46,75.2,88,40,5.82
Nanortalik,GL,60.14,-45.24,48.9,73,81,7.43
Mahébourg,MU,-20.41,57.7,69.8,73,40,14.99
Portland,US,45.52,-122.68,69.8,29,0,9.4
Bogale,MM,16.28,95.4,83.91,78,76,8.84
Avarua,CK,-21.21,-159.78,77.0,73,44,18.34
Mergen,CN,49.18,125.22,54.14,93,100,9.46
Sitka,US,57.05,-135.33,57.2,82,75,8.05
Diamantino,BR,-14.41,-56.45,78.82,19,1,6.13
Fukuechō,JP,32.69,128.84,86.0,79,20,6.93
Luwuk,ID,-0.95,122.79,83.01,62,100,8.25
Dunedin,NZ,-45.87,170.5,59.41,53,65,17.0
Castelnaudary,FR,43.32,1.95,57.29,87,90,11.41
Padang,ID,-0.95,100.35,83.8,65,100,2.82
Oranjemund,NA,-28.55,16.43,49.33,72,0,7.34
Lompoc,US,34.64,-120.46,62.46,72,1,11.41
Tokur,RU,53.13,132.9,61.99,39,93,3.36
Otjiwarongo,NA,-20.46,16.65,47.5,39,3,13.02
Mackay,AU,-21.15,149.2,73.24,60,90,17.22
Chengzhong,CN,30.95,113.55,84.2,62,0,6.71
Lagos,NG,6.58,3.75,74.55,90,100,3.6
East London,ZA,-33.02,27.91,52.05,61,42,18.97
Araouane,ML,18.9,-3.53,86.0,53,46,12.53
Doha,QA,25.29,51.53,87.62,66,0,4.7
Ust'-Koksa,RU,50.27,85.61,51.01,75,67,1.14
Auki,SB,-8.77,160.7,88.29,66,94,8.48
Vaini,TO,-21.2,-175.2,80.6,74,40,10.29
Bambous Virieux,MU,-20.34,57.76,69.89,73,40,14.99
Santa Maria,BR,-29.68,-53.81,68.0,88,90,9.17
Takoradze,GH,4.88,-1.76,73.44,91,100,8.03
Mandera,KE,3.94,41.87,76.69,65,0,14.2
Maués,BR,-3.38,-57.72,77.36,75,24,2.1
Assiut,EG,27.18,31.18,78.8,41,0,11.41
Govlyar,AZ,40.95,45.73,66.2,88,20,11.41
Elizabeth City,US,36.29,-76.25,79.34,88,1,10.29
Saint Anthony,US,45.02,-93.22,66.43,52,1,4.7
Povenets,RU,62.85,34.83,46.06,88,82,3.02
Kusa,RU,55.34,59.44,59.07,84,67,2.75
Bima,ID,-8.47,118.72,88.54,44,45,5.06
Rocha,UY,-34.48,-54.33,47.52,77,100,13.96
Bhīnmāl,IN,25.0,72.25,83.48,78,100,4.32
Bridlington,GB,54.08,-0.19,52.5,76,100,9.17
Zyryanka,RU,65.75,150.85,53.92,47,0,3.15
Karaidel',RU,55.83,56.91,59.5,89,100,3.94
Hobart,AU,-42.88,147.33,66.69,37,75,23.04
Codrington,AU,-38.27,141.97,56.35,78,100,17.07
Ulaangom,MN,49.98,92.07,60.55,46,1,1.97
Kudahuvadhoo,MV,2.67,72.89,83.37,63,53,0.29
Riyadh,SA,24.69,46.72,80.6,26,97,3.36
Pokhara,NP,28.23,83.98,74.68,80,58,1.12
Buraidah,SA,26.33,43.98,80.6,32,0,4.7
Abadan,TM,38.05,58.21,68.0,40,0,4.7
Baykit,RU,61.67,96.37,58.82,69,29,2.71
Tiarei,PF,-17.53,-149.33,84.2,62,40,10.29
Tabas,IR,33.6,56.92,73.4,20,0,2.86
Labuhan,ID,-6.88,112.21,82.78,59,100,5.39
Fare,PF,-16.7,-151.02,78.44,75,0,23.06
Chokurdakh,RU,70.63,147.92,42.31,81,100,3.87
Bastos,BR,-21.92,-50.73,72.36,44,0,6.38
Micheweni,TZ,-4.97,39.83,74.43,82,49,7.85
Ejura,GH,7.39,-1.36,70.88,89,97,6.17
Arrondissement de Verdun,FR,49.25,5.33,49.98,93,22,2.8
Zhirnovsk,RU,50.98,44.77,56.64,78,33,3.85
Pundaguitan,PH,6.37,126.17,83.98,74,100,9.84
Sørland,NO,67.67,12.69,48.24,79,100,12.33
Berlevåg,NO,70.86,29.09,48.45,76,90,10.6
Maceió,BR,-9.67,-35.74,71.6,94,40,2.24
Evensk,RU,61.95,159.23,58.12,50,76,8.72
Chui,UY,-33.7,-53.46,51.78,87,98,13.11
Saskylakh,RU,71.92,114.08,59.31,44,100,5.66
Longyearbyen,SJ,78.22,15.64,39.2,89,75,23.04
Tagusao,PH,9.19,117.81,85.91,67,100,4.85
Puerto Escondido,MX,15.85,-97.07,80.44,76,100,2.42
Pitkyaranta,RU,61.57,31.48,51.03,89,100,10.38
Nyurba,RU,63.28,118.33,61.86,63,100,3.58
Yumen,CN,40.28,97.2,65.52,34,0,1.72
Kapit,MY,2.02,112.93,84.79,72,75,2.04
Ambulu,ID,-8.35,113.61,81.45,62,89,6.8
Kruisfontein,ZA,-34.0,24.73,46.0,66,21,4.0
Laguna,US,38.42,-121.42,85.66,25,1,10.29
Kirakira,SB,-10.45,161.92,85.75,73,89,13.18
Aden,YE,12.78,45.04,85.77,76,55,26.11
Wewak,PG,-3.55,143.63,84.56,62,0,5.99
Bonthe,SL,7.53,-12.51,75.33,90,100,9.93
Vanimo,PG,-2.67,141.3,86.88,57,0,5.5
Humboldt,US,40.67,-123.92,59.56,76,1,9.17
Cherskiy,RU,68.75,161.3,46.0,73,100,6.29
Yacuiba,BO,-22.04,-63.68,74.89,47,0,6.71
Philadelphia,US,39.95,-75.16,75.79,78,75,20.8
Ayan,RU,56.45,138.17,57.42,60,89,11.36
Capaci,IT,38.17,13.24,82.15,65,0,5.82
Tiksi,RU,71.69,128.87,45.88,75,0,8.43
Três Passos,BR,-27.46,-53.93,64.0,89,29,0.78
Tura,IN,25.52,90.22,78.17,89,100,5.73
Leningradskiy,RU,69.38,178.42,37.45,87,100,10.74
Levice,SK,48.22,18.61,73.0,72,0,1.01
Coyhaique,CL,-45.58,-72.07,42.8,60,75,5.82
Honningsvåg,NO,70.98,25.97,49.68,78,46,8.25
Burnie,AU,-41.07,145.92,57.0,72,100,7.0
Deputatsky,RU,69.3,139.9,40.03,80,96,4.36
Panzhihua,CN,26.59,101.71,70.0,84,98,1.1
Talcahuano,CL,-36.72,-73.12,44.6,75,0,6.93
Alfredo Chaves,BR,-20.64,-40.75,71.6,88,20,4.7
Agirish,RU,61.92,63.02,54.28,93,100,6.8
Sassandra,CI,4.95,-6.08,73.98,89,97,8.41
San Patricio,MX,19.22,-104.7,80.6,83,75,17.22
Lelystad,NL,52.51,5.47,58.32,76,15,5.01
Esperance,AU,-33.87,121.9,51.8,81,90,3.36
Katherine,AU,-14.47,132.27,87.8,20,82,14.99
Erzin,TR,36.96,36.2,81.0,92,0,2.68
Hasaki,JP,35.73,140.83,93.78,59,40,6.93
Okha,RU,53.57,142.95,57.47,59,0,7.43
Tuktoyaktuk,CA,69.45,-133.04,44.6,81,40,13.87
Kailua,US,21.4,-157.74,81.82,58,75,14.99
Meulaboh,ID,4.14,96.13,80.31,83,100,3.06
Wattegama,LK,6.8,81.48,78.8,94,90,3.36
Malbork,PL,54.04,19.03,56.52,93,100,4.65
Ust-Kuyga,RU,70.02,135.6,57.65,41,0,4.61
Saldanha,ZA,-33.01,17.94,37.4,63,13,2.24
Arrondissement du Havre,FR,49.58,0.33,56.34,87,90,13.87
Petropavlovsk-Kamchatskiy,RU,53.05,158.65,62.6,51,97,13.42
Bethel,US,41.37,-73.41,71.37,79,1,3.0
Bouna,CI,9.27,-3.0,71.2,94,61,7.52
Kulhudhuffushi,MV,6.62,73.07,83.14,69,100,8.19
Ambon City,ID,-3.7,128.18,77.0,94,75,4.7
Usinsk,RU,65.99,57.53,48.27,76,100,7.94
Nadym,RU,65.53,72.52,45.73,78,100,7.54
Loandjili,CG,-4.76,11.86,71.94,85,100,7.52
Dingle,PH,11.0,122.67,86.14,72,88,7.7
Yerbogachën,RU,61.28,108.01,61.88,63,10,6.73
Parabel',RU,58.7,81.48,57.06,91,4,6.26
Saint-Joseph,RE,-21.37,55.62,60.03,77,67,4.7
São Filipe,CV,14.9,-24.5,79.12,83,76,7.58
Sept-Îles,CA,50.2,-66.38,51.82,81,75,5.82
Ponta Delgada,PT,37.73,-25.67,75.2,78,75,5.82
Carnarvon,AU,-24.87,113.63,68.0,37,0,17.22
Qaanaaq,GL,77.48,-69.36,30.88,83,0,5.3
La Ronge,CA,55.1,-105.28,60.8,77,75,13.87
Groton,US,41.35,-72.08,72.66,94,1,5.82
Alice Springs,AU,-23.7,133.88,76.64,11,0,3.36
Orange Cove,US,36.62,-119.31,96.62,23,1,4.7
Ingham,US,42.6,-84.38,65.35,63,1,5.82
Sumbe,AO,-11.21,13.84,68.41,84,100,3.24
Portsmouth,GB,50.8,-1.09,53.78,82,96,3.0
Weligama,LK,5.97,80.42,80.76,81,100,11.86
Nacala,MZ,-14.54,40.67,70.72,89,6,4.94
Bandarbeyla,SO,9.49,50.81,77.25,72,86,24.0
San Jose de Guanipa,VE,8.89,-64.17,76.46,85,99,4.07
San,ML,13.3,-4.9,75.51,88,100,5.17
Ouésso,CG,1.61,16.05,70.2,94,100,1.99
Bubaque,GW,11.28,-15.83,79.0,82,100,10.58
Chute-aux-Outardes,CA,49.12,-68.4,51.8,76,90,11.41
Panalingaan,PH,8.78,117.42,87.06,62,100,4.79
Wanaka,NZ,-44.7,169.15,54.39,59,35,10.65
Quryq,KZ,43.2,51.65,70.41,82,0,6.98
Tazovsky,RU,67.47,78.7,46.27,85,100,14.7
Mogadishu,SO,2.04,45.34,77.2,84,27,14.25
Concepción del Oro,MX,24.63,-101.42,73.35,44,82,5.82
Kenai,US,60.55,-151.26,58.95,55,90,8.05
Lata,PT,40.16,-8.33,57.31,90,0,3.02
Nagorsk,RU,59.32,50.81,53.29,97,47,4.14
Pevek,RU,69.7,170.31,39.18,82,100,6.76
Fuengirola,ES,36.54,-4.62,73.17,23,100,12.75
Imeni Poliny Osipenko,RU,52.42,136.49,61.9,50,100,4.68
Soe,ID,-9.86,124.28,79.18,37,82,8.9
Mabama,TZ,-5.13,32.53,68.0,64,0,5.82
Taku,CN,39.02,117.65,84.2,66,0,8.95
‘Ewa Beach,US,21.32,-158.01,87.48,43,40,10.29
Black River,JM,18.03,-77.85,83.34,83,20,4.7
Kumul,CN,42.8,93.45,72.34,25,0,6.31
Chifeng,CN,42.27,118.96,75.63,67,100,5.99
Bengkulu,ID,-3.8,102.27,83.79,64,67,4.34
Paamiut,GL,61.99,-49.67,48.04,63,15,7.56
Iquique,CL,-20.22,-70.14,59.0,72,90,6.93
Aswān,EG,24.09,32.91,81.21,24,0,7.07
Port Elizabeth,ZA,-33.92,25.57,46.4,87,20,11.41
Marsh Harbour,BS,26.54,-77.06,84.31,70,91,5.99
Mogadouro,PT,41.34,-6.71,52.0,69,0,1.01
São João da Barra,BR,-21.64,-41.05,72.9,84,0,20.4
Ovalle,CL,-30.6,-71.2,51.49,64,93,2.51
Racine,US,42.75,-88.08,63.48,82,1,8.59
Shingū,JP,33.73,135.98,86.0,74,40,6.93
Dourados,BR,-22.22,-54.81,70.05,58,0,5.95
kimparana,ML,12.83,-4.92,74.59,89,100,9.28
Campbell River,CA,50.02,-125.24,64.94,34,20,21.92
La Ligua,CL,-32.45,-71.23,47.08,85,6,0.74
Saint-Pierre,RE,-21.34,55.48,59.38,77,54,4.7
Bilibino,RU,68.05,166.44,44.91,82,100,2.86
The Valley,AI,18.22,-63.06,83.73,79,20,14.99
Weinan,CN,34.5,109.51,78.44,73,90,8.95
Tilichiki,RU,60.47,166.1,54.99,62,100,10.56
Bang Saphan,TH,11.21,99.51,84.2,79,20,5.82
Hūn,LY,29.13,15.95,75.97,51,0,9.71
Karasburg,NA,-28.02,18.75,30.74,97,0,3.36
Belmonte,BR,-15.86,-38.88,71.6,88,40,1.12
Igarka,RU,67.47,86.58,58.06,68,6,4.47
Kangaba,ML,11.93,-8.42,71.85,95,100,4.76
Morro Bay,US,35.37,-120.85,62.98,80,20,1.01
Cidreira,BR,-30.18,-50.21,66.0,89,98,7.05
Winslow,US,35.02,-110.7,89.6,22,1,11.41
Christchurch,NZ,-43.53,172.63,71.6,28,25,20.8
Churapcha,RU,62.0,132.43,57.74,51,100,11.27
Xanxerê,BR,-26.88,-52.4,62.6,77,0,4.25
Ust-Maya,RU,60.42,134.53,62.71,39,100,10.09
Taoudenni,ML,22.68,-3.98,92.95,44,10,13.06
Oruro,BO,-17.98,-67.15,49.73,50,17,6.31
Fairbanks,US,64.84,-147.72,62.83,48,40,5.82
Okhotsk,RU,59.38,143.3,59.86,44,13,4.16
Kwakoa,TZ,-3.77,37.72,67.15,77,99,0.49
Buala,SB,-8.14,159.59,86.05,69,26,8.48
Lavrentiya,RU,65.58,-171.0,50.74,65,0,10.76
Nicoya,CR,10.15,-85.45,75.72,92,100,1.74
Hearst,CA,49.68,-83.67,48.76,96,100,9.95
Bodden Town,KY,19.28,-81.25,85.01,84,20,5.82
Washougal,US,45.58,-122.35,69.21,43,0,5.99
Aitape,PG,-3.14,142.35,85.68,58,7,4.9
Leh,IN,34.17,77.58,55.58,40,1,6.2
Middelburg,ZA,-25.78,29.46,57.43,45,51,4.88
Olafsvik,IS,64.89,-23.71,52.03,92,100,13.13
Beloha,MG,-25.17,45.05,70.39,61,2,6.51
Noumea,NC,-22.28,166.46,73.4,46,48,19.46
Ilulissat,GL,69.22,-51.1,39.2,90,60,5.82
Gediz,TR,39.04,29.41,70.56,23,0,4.34
Hong Kong,HK,22.29,114.16,88.66,66,20,4.0
Saint-Philippe,RE,-21.36,55.77,58.12,77,76,5.82
Kota Kinabalu,MY,5.97,116.07,84.11,83,20,3.36
Nikolskoye,RU,59.7,30.79,52.5,87,75,8.95
Canatlán,MX,24.52,-104.78,73.4,56,90,8.05
Lugovoy,KZ,42.95,72.76,66.49,39,0,1.43
Pangnirtung,CA,66.15,-65.71,42.8,87,5,9.17
San Cristobal,VE,7.77,-72.22,66.27,89,73,2.19
Tanout,NE,14.97,8.89,81.45,61,76,8.37
Singaraja,ID,-8.11,115.09,84.27,51,6,1.79
Savannah Bight,HN,16.45,-85.85,84.78,80,0,26.42
Sakakah,SA,29.97,40.21,84.2,13,0,8.05
Gilgit,PK,35.92,74.31,75.54,34,0,4.0
Palu,ID,-0.89,119.87,89.78,50,100,0.65
Impfondo,CG,1.64,18.07,70.09,95,100,1.86
Brookhaven,US,31.58,-90.44,75.33,86,31,5.12
Yar-Sale,RU,66.83,70.83,43.68,78,20,7.63
Shelburne,CA,44.08,-80.2,61.5,77,75,5.82
Naze,JP,28.37,129.48,85.03,83,75,12.75
Kaitangata,NZ,-46.28,169.85,60.01,52,66,15.01
Tottori-shi,JP,35.5,134.23,89.6,70,20,8.05
Formosa,AR,-26.18,-58.18,82.4,58,0,23.04
Cotonou,BJ,6.37,2.42,77.0,88,20,11.41
Nur,PL,52.67,22.32,57.15,92,33,4.14
Umuarama,BR,-23.77,-53.33,68.81,60,0,6.29
Bowen,AU,-20.02,148.23,73.4,49,90,24.16
Vila Velha,BR,-20.33,-40.29,71.6,88,20,4.7
Launceston,AU,-41.45,147.17,58.46,58,11,33.33
Chupa,RU,66.27,33.05,41.95,91,0,1.05
Bariloche,AR,-41.15,-71.31,35.6,59,40,12.75
Antón Lizardo,MX,19.05,-95.98,84.61,79,40,2.24
Glace Bay,CA,46.2,-59.96,58.87,82,75,5.82
Iskateley,RU,67.68,53.15,40.84,80,99,10.16
Wasilla,US,61.58,-149.44,60.6,51,1,3.36
Almeirim,BR,-1.52,-52.58,75.92,86,42,4.59
Ginir,ET,7.13,40.7,57.24,83,71,6.24
Le Port,RE,-20.94,55.29,58.71,72,33,19.46
Tigil',RU,57.8,158.67,58.96,55,3,12.01
Mangaratiba,BR,-22.96,-44.04,69.8,88,0,7.31
Mukhen,RU,48.1,136.1,67.96,52,92,3.78
Gao,ML,16.64,1.64,78.62,77,100,9.17
Owando,CG,-0.48,15.9,70.83,94,100,2.77
Dali,CN,25.7,100.18,66.07,84,100,1.99
Port Blair,IN,11.67,92.75,84.36,72,21,4.63
Erenhot,CN,43.65,111.98,61.56,86,100,11.86
Arlit,NE,18.74,7.39,88.63,45,29,10.13
el Prat de Llobregat,ES,41.33,2.09,64.26,82,75,10.29
Qandala,SO,11.47,49.87,88.36,52,18,3.38
Chokwé,MZ,-24.53,32.98,71.08,78,75,14.72
Ishigaki,JP,24.34,124.16,86.0,89,20,14.99
Pacific Grove,US,36.62,-121.92,58.77,92,72,4.0
Saint-François,FR,46.42,3.91,54.28,82,66,9.17
Guarapari,BR,-20.67,-40.5,71.6,88,20,4.7
Sistranda,NO,63.73,8.83,48.2,93,75,3.36
Sonepur,IN,20.83,83.92,81.32,81,10,3.22
Gualaquiza,EC,-3.4,-78.55,63.57,88,3,1.45
Labuan,MY,5.28,115.24,80.29,88,40,5.88
Ushtobe,KZ,45.25,77.98,66.07,37,0,13.0
Bayabas,PH,16.45,120.52,77.25,78,100,6.04
Port Jervis,US,41.38,-74.69,70.38,36,0,11.43
Douentza,ML,15.0,-2.95,81.39,70,100,5.23
Coquimbo,CL,-29.95,-71.34,51.8,87,100,3.36
Dvinskoy,RU,62.15,45.12,55.36,94,100,7.9
Geraldton,AU,-28.77,114.6,60.8,51,0,14.99
Narasannapeta,IN,18.42,84.05,82.87,82,5,4.18
Berdigestyakh,RU,62.1,126.7,55.35,88,100,3.09
Karratha,AU,-20.74,116.85,88.57,20,0,20.4
Aklavik,CA,68.22,-135.01,59.0,36,20,5.37
Mandalgovi,MN,45.76,106.27,57.94,68,100,4.9
Villa Carlos Paz,AR,-31.42,-64.5,52.14,49,78,11.41
Voh,NC,-20.97,164.7,77.05,48,1,17.11
Vila Franca do Campo,PT,37.72,-25.43,75.2,78,75,5.82
Kangaatsiaq,GL,68.31,-53.46,43.43,85,96,10.0
Lodja,CD,-3.48,23.43,70.39,95,97,2.37
Adrar,MR,20.5,-10.07,92.39,13,26,16.55
Campos dos Goytacazes,BR,-21.75,-41.3,71.2,85,0,11.21
Flinders,AU,-34.58,150.86,69.46,54,0,8.99
São Gonçalo dos Campos,BR,-12.43,-38.97,67.55,98,49,3.04
Acaraú,BR,-2.89,-40.12,78.53,76,55,19.46
Acajutla,SV,13.59,-89.83,69.01,99,100,4.03
Manokwari,ID,-0.87,134.08,83.01,71,88,11.16
Benjamin Constant,BR,-4.38,-70.03,78.8,94,100,3.49
Vangaindrano,MG,-23.35,47.6,67.23,90,0,6.53
Hualmay,PE,-11.1,-77.61,60.64,85,60,8.16
Denpasar,ID,-8.65,115.22,82.4,74,20,17.22
Nchelenge,ZM,-9.35,28.73,70.77,58,14,3.11
Tirumullaivāsal,IN,11.23,79.83,83.12,71,85,9.69
Narsaq,GL,60.92,-46.05,60.8,31,76,24.16
Maracaibo,VE,10.63,-71.64,82.9,74,13,13.49
Temirtau,KZ,50.05,72.95,48.2,87,0,4.47
Porto-Novo,BJ,6.5,2.6,77.0,88,20,11.41
Sjøvegan,NO,68.87,17.85,42.78,93,99,8.05
Māndvi,IN,22.83,69.37,81.84,85,100,14.18
Broken Hill,AU,-31.95,141.43,75.2,14,83,20.8
Bloomington,US,44.84,-93.3,66.09,52,1,3.36
Faya,SA,18.39,42.45,66.2,48,3,4.18
Ciudad Bolivar,VE,8.12,-63.55,78.87,81,91,6.58
Autazes,BR,-3.58,-59.13,74.35,94,3,1.63
Clyde River,CA,70.47,-68.59,41.0,93,1,2.24
Beyşehir,TR,37.68,31.72,62.69,30,0,1.45
Xapuri,BR,-10.65,-68.5,82.83,43,8,2.53
Henties Bay,NA,-22.12,14.28,48.99,80,0,12.41
Tete,MZ,-16.16,33.59,69.8,46,7,1.95
Tautira,PF,-17.73,-149.15,84.2,62,40,10.29
Kumluca,TR,36.37,30.29,86.67,33,0,4.63
Mwinilunga,ZM,-11.74,24.43,67.57,59,79,0.63
Chapais,CA,49.78,-74.85,51.8,81,90,4.7
Witu,KE,-2.39,40.44,72.95,87,46,7.7
Saint George,US,37.1,-113.58,94.77,17,1,14.99
Turukhansk,RU,65.82,87.98,56.37,69,89,2.55
Shache,CN,38.42,77.24,72.7,29,100,5.97
Kodinsk,RU,58.69,99.18,62.17,64,0,4.05
Jalu,LY,29.03,21.55,78.42,46,0,5.48
Porto de Moz,BR,-1.75,-52.24,77.72,73,41,4.21
Caraúbas,BR,-5.79,-37.56,74.71,67,96,12.28
Desbiens,CA,48.42,-71.95,53.6,87,90,6.93
Nanzhou,CN,29.36,112.4,82.22,77,0,5.23
Dukat,RU,62.55,155.55,42.31,79,100,5.28
Port Lincoln,AU,-34.73,135.87,57.61,60,66,21.5
Burley,US,42.54,-113.79,84.2,20,1,6.93
Ankang,CN,32.68,109.02,76.46,74,100,2.84
Los Llanos de Aridane,ES,28.66,-17.92,68.29,73,75,17.22
Brae,GB,60.4,-1.35,46.4,75,100,5.82
Sola,VU,-13.88,167.55,79.7,84,51,23.73
Paita,PE,-5.09,-81.11,62.24,86,19,14.34
Yovon,TJ,38.31,69.04,66.2,63,0,3.15
Mtsamboro,YT,-12.7,45.07,69.8,83,9,2.82
Río Gallegos,AR,-51.62,-69.22,39.2,69,87,25.28
Baghmara,IN,23.8,86.21,82.9,70,51,5.61
Puerto Madryn,AR,-42.77,-65.04,45.57,54,0,16.35
Srednekolymsk,RU,67.45,153.68,49.44,56,75,4.03
Batemans Bay,AU,-35.72,150.18,68.68,46,0,11.01
Byron Bay,AU,-28.65,153.62,67.32,60,90,5.82
Klaksvík,FO,62.23,-6.59,41.0,93,55,1.12
Nome,US,64.5,-165.41,56.23,87,90,5.82
Hobyo,SO,5.35,48.53,76.42,87,99,21.54
Abu Dhabi,AE,24.47,54.37,92.43,75,45,4.7
Norman Wells,CA,65.28,-126.83,59.0,40,20,9.17
Maniitsoq,GL,65.42,-52.9,49.15,75,77,8.32
Pemangkat,ID,1.17,108.97,83.17,71,60,5.19
Parakou,BJ,9.34,2.63,69.08,99,36,4.16
Richards Bay,ZA,-28.78,32.04,65.08,65,100,14.65
Segezha,RU,63.74,34.32,44.73,93,8,5.55
Quatre Cocos,MU,-20.21,57.76,69.91,73,40,14.99
Waingapu,ID,-9.66,120.26,84.36,48,40,17.87
Uxbridge,US,42.08,-71.63,72.99,91,9,1.01
Benicarló,ES,40.42,0.43,58.01,58,0,25.99
Ciudad General Terán,MX,25.27,-99.68,86.38,60,0,16.93
Gizo Government Station,SB,-8.1,156.84,84.31,76,60,11.12
Rio Grande,BR,-32.03,-52.1,57.99,93,100,3.0
Kununurra,AU,-15.77,128.73,86.0,29,11,12.75
